# Add one item per dive site.
# Required for map marker: `lat`, `lng`
# Optional fields: `date`, `notes`
#
# Example:
# - name: Blue Corner
#   location: Palau
#   date: 2024-08
#   lat: 7.2471
#   lng: 134.3649
#   notes: Strong current drift dive with reef sharks.
- name: Cozumel
  location: Quintana Roo, Mexico
  lat: 20.4220
  lng: -86.9223
  notes: Fast drift dives along healthy walls with clear visibility and frequent turtle sightings.

- name: Dos Ojos
  location: Tulum, Quintana Roo, Mexico
  lat: 20.3315
  lng: -87.3972
  notes: Cenote cavern dive with dramatic light beams, halocline layers, and crystal-clear water.
  
- name: Waikiki
  location: Oahu, Hawaii, USA
  lat: 21.2767
  lng: -157.8294
  notes: Reef and wreck dives with tropical fish, plus Hawaiian green sea turtles.

- name: Kona
  location: Hawaii, USA
  lat: 19.6406
  lng: -155.9969
  notes: Volcanic reef dives and memorable night dives with manta rays.

- name: Palau
  location: Koror, Palau
  lat: 7.3426
  lng: 134.4789
  notes: Current-rich sites with dramatic walls, sharks, and dense schooling fish.

- name: Izu
  location: Shizuoka, Japan
  lat: 34.9730
  lng: 138.7800
  notes: Temperate-water diving with volcanic topography and excellent macro life.

- name: Kushimoto
  location: Wakayama, Japan
  lat: 33.4725
  lng: 135.7812
  notes: Kuroshio-influenced waters with colorful soft corals and rich fish diversity.

- name: Okinawa
  location: Okinawa, Japan
  lat: 26.2124
  lng: 127.6809
  notes: Warm blue water and coral-garden dives with relaxed conditions.

- name: Miyako
  location: Okinawa, Japan
  lat: 24.8056
  lng: 125.2811
  notes: Known for underwater arches, tunnels, and cave-style swim-throughs.

- name: Iriomote
  location: Okinawa, Japan
  lat: 24.3878
  lng: 123.8439
  notes: Remote island reefs with healthy coral and abundant small marine life.
